{
    "Browser History": [
        {
            "page_transition": "GENERATED",
            "title": "scorpio price - Google Search",
            "url": "https://www.google.co.in/search?q\u003dscorpio+price\u0026oq\u003dscor\u0026aqs\u003dchrome.3.69i57j0l3.3270j0j4\u0026client\u003dms-android-motorola-rev2\u0026sourceid\u003dchrome-mobile\u0026ie\u003dUTF-8",
            "client_id": "jd1XCa5VLRyoq6I7TLYCgQ\u003d\u003d",
            "time_usec": 1517589953942148
},
        {
            "page_transition": "GENERATED",
            "title": "seinfeld - Google Search",
            "url": "https://www.google.co.in/search?q\u003dseinfeld\u0026oq\u003dsein\u0026aqs\u003dchrome.1.69i57j69i59.1961j0j9\u0026client\u003dms-android-motorola-rev2\u0026sourceid\u003dchrome-mobile\u0026ie\u003dUTF-8",
            "client_id": "jd1XCa5VLRyoq6I7TLYCgQ\u003d\u003d",
            "time_usec": 1517589952292445
},
        {
            "page_transition": "GENERATED",
            "title": "poppies seeds - Google Search",
            "url": "https://www.google.co.in/search?q\u003dpoppies+seeds\u0026oq\u003dpoppies+s\u0026aqs\u003dchrome.1.69i57j0l3.4494j1j9\u0026client\u003dms-android-motorola-rev2\u0026sourceid\u003dchrome-mobile\u0026ie\u003dUTF-8",
            "client_id": "jd1XCa5VLRyoq6I7TLYCgQ\u003d\u003d",
            "time_usec": 1517589941514500
},
        {
            "page_transition": "LINK",
            "title": "Buy Namaste India Poppy Seeds/Khus Khus 100 gm online at lowest price - Grofers.com",
            "url": "https://grofers.com/prn/Namaste-India-Poppy-Seeds/Khus-Khus/prid/374784?_city\u003dBengaluru\u0026referrer\u003dre%3D1%26a%3Dgrofers%26i%3Dcom.grofers.customerapp%26ca%3DGoogle%2Bweb%2Bcampaign%26an%3DGoogle%2BDisplay%2B%2528Websites%2529%26p%3DAndroid%26pl%3DGoogle%2Bweb%26cr%3D190369622340%26s%3D%26h%3D6dc8b53940034a64afd7b49b2d48572a3688d45d\u0026gclid\u003dCjwKCAiAtdDTBRArEiwAPT4y-wTOWHQATuDAVoJ2nMZ5EGFS7qGfbUc-WTVdl3Qj-YjPXtHBEpNXYxoCvoAQAvD_BwE",
            "client_id": "jd1XCa5VLRyoq6I7TLYCgQ\u003d\u003d",
            "time_usec": 1517589928735099
},
        {
            "page_transition": "GENERATED",
            "title": "poppies seeds - Google Search",
            "url": "https://www.google.co.in/search?q\u003dpoppies+seeds\u0026oq\u003dpoppies+s\u0026aqs\u003dchrome.1.69i57j0l3.4494j1j9\u0026client\u003dms-android-motorola-rev2\u0026sourceid\u003dchrome-mobile\u0026ie\u003dUTF-8",
            "client_id": "jd1XCa5VLRyoq6I7TLYCgQ\u003d\u003d",
            "time_usec": 1517589922281270
},
        {
            "page_transition": "LINK",
            "title": "poppies seeds - Google Search",
            "url": "https://www.google.co.in/search?q\u003dpoppies+seeds\u0026client\u003dms-android-motorola-rev2\u0026prmd\u003divmn\u0026source\u003dlnms\u0026tbm\u003disch\u0026sa\u003dX\u0026ved\u003d0ahUKEwjzhuTu1ofZAhUGPrwKHQdlASAQ_AUIESgB\u0026biw\u003d360\u0026bih\u003d512",
            "client_id": "jd1XCa5VLRyoq6I7TLYCgQ\u003d\u003d",
            "time_usec": 1517589885190214
},
        {
            "page_transition": "GENERATED",
            "title": "poppies seeds - Google Search",
            "url": "https://www.google.co.in/search?q\u003dpoppies+seeds\u0026oq\u003dpoppies+s\u0026aqs\u003dchrome.1.69i57j0l3.4494j1j9\u0026client\u003dms-android-motorola-rev2\u0026sourceid\u003dchrome-mobile\u0026ie\u003dUTF-8",
            "client_id": "jd1XCa5VLRyoq6I7TLYCgQ\u003d\u003d",
            "time_usec": 1517589882101142
},
        {
            "page_transition": "GENERATED",
            "title": "seinfeld - Google Search",
            "url": "https://www.google.co.in/search?q\u003dseinfeld\u0026oq\u003dsein\u0026aqs\u003dchrome.1.69i57j69i59.1961j0j9\u0026client\u003dms-android-motorola-rev2\u0026sourceid\u003dchrome-mobile\u0026ie\u003dUTF-8",
            "client_id": "jd1XCa5VLRyoq6I7TLYCgQ\u003d\u003d",
            "time_usec": 1517580431590165
},
        {
            "page_transition": "GENERATED",
            "title": "scorpio price - Google Search",
            "url": "https://www.google.co.in/search?q\u003dscorpio+price\u0026oq\u003dscor\u0026aqs\u003dchrome.3.69i57j0l3.3270j0j4\u0026client\u003dms-android-motorola-rev2\u0026sourceid\u003dchrome-mobile\u0026ie\u003dUTF-8",
            "client_id": "jd1XCa5VLRyoq6I7TLYCgQ\u003d\u003d",
            "time_usec": 1517578348666094
},
        {
            "page_transition": "FORM_SUBMIT",
            "title": "mahindra scorpio on road price in bangalore - Google Search",
            "url": "https://www.google.co.in/search?client\u003dms-android-motorola-rev2\u0026ei\u003dQWh0WszlCoGx0gTF9YLgAQ\u0026q\u003dmahindra+scorpio+on+road+price+in+bangalore\u0026oq\u003dscorpio+price\u0026gs_l\u003dmobile-gws-serp.1.0.0i71k1l5.0.0.0.22382.1.1.0.0.0.0.0.0..0.0....0...1c..64.mobile-gws-serp..1.0.0....191.Mn-ugo_S3pw",
            "client_id": "jd1XCa5VLRyoq6I7TLYCgQ\u003d\u003d",
            "time_usec": 1517578329619974
},
        {
            "page_transition": "GENERATED",
            "title": "scorpio price - Google Search",
            "url": "https://www.google.co.in/search?q\u003dscorpio+price\u0026oq\u003dscor\u0026aqs\u003dchrome.3.69i57j0l3.3270j0j4\u0026client\u003dms-android-motorola-rev2\u0026sourceid\u003dchrome-mobile\u0026ie\u003dUTF-8",
            "client_id": "jd1XCa5VLRyoq6I7TLYCgQ\u003d\u003d",
            "time_usec": 1517578304938846
},
        {
            "page_transition": "RELOAD",
            "title": "Winston Churchill Quotes - BrainyQuote",
            "url": "https://www.brainyquote.com/authors/winston_churchill",
            "client_id": "jd1XCa5VLRyoq6I7TLYCgQ\u003d\u003d",
            "time_usec": 1517578298923908
},
        {
            "page_transition": "RELOAD",
            "title": "Winston Churchill Quotes - BrainyQuote",
            "url": "https://www.brainyquote.com/authors/winston_churchill",
            "client_id": "jd1XCa5VLRyoq6I7TLYCgQ\u003d\u003d",
            "time_usec": 1517460691454976
},
        {
            "page_transition": "LINK",
            "title": "Winston Churchill Quotes - BrainyQuote",
            "url": "https://www.brainyquote.com/authors/winston_churchill",
            "client_id": "jd1XCa5VLRyoq6I7TLYCgQ\u003d\u003d",
            "time_usec": 1517395995087143
},
        {
            "page_transition": "LINK",
            "title": "We make a living by what we get, but we make a life by what we give. - Winston Churchill - BrainyQuote",
            "url": "https://www.brainyquote.com/quotes/winston_churchill_131192",
            "client_id": "jd1XCa5VLRyoq6I7TLYCgQ\u003d\u003d",
            "time_usec": 1517395986875011
},
        {
            "page_transition": "LINK",
            "title": "Winston Churchill Quotes - BrainyQuote",
            "url": "https://www.brainyquote.com/authors/winston_churchill",
            "client_id": "jd1XCa5VLRyoq6I7TLYCgQ\u003d\u003d",
            "time_usec": 1517395973756771
},
        {
            "page_transition": "LINK",
            "title": "Google Image Result for https://www.brainyquote.com/photos_tr/en/w/winstonchurchill/131192/winstonchurchill1-2x.jpg",
            "url": "https://www.google.co.in/imgres?imgurl\u003dhttps://www.brainyquote.com/photos_tr/en/w/winstonchurchill/131192/winstonchurchill1-2x.jpg\u0026imgrefurl\u003dhttps://www.brainyquote.com/authors/winston_churchill\u0026h\u003d630\u0026w\u003d1200\u0026tbnid\u003dI2md2eBHsnntjM:\u0026tbnh\u003d163\u0026tbnw\u003d310\u0026usg\u003d__l1ZdHIPu2ziofAQfL3dRny0jIEY%3D\u0026vet\u003d1\u0026docid\u003dnjHNlJLcSdqJoM",
            "client_id": "jd1XCa5VLRyoq6I7TLYCgQ\u003d\u003d",
            "time_usec": 1517395967996082
},
        {
            "page_transition": "LINK",
            "title": "My Saves",
            "url": "https://www.google.co.in/save/list/dt_fav_images",
            "client_id": "jd1XCa5VLRyoq6I7TLYCgQ\u003d\u003d",
            "time_usec": 1517395962538825
},
        {
            "page_transition": "LINK",
            "title": "Google Image Result for https://www.brainyquote.com/photos_tr/en/w/winstonchurchill/131192/winstonchurchill1-2x.jpg",
            "url": "https://www.google.co.in/imgres?imgurl\u003dhttps://www.brainyquote.com/photos_tr/en/w/winstonchurchill/131192/winstonchurchill1-2x.jpg\u0026imgrefurl\u003dhttps://www.brainyquote.com/authors/winston_churchill\u0026h\u003d630\u0026w\u003d1200\u0026tbnid\u003dI2md2eBHsnntjM:\u0026tbnh\u003d163\u0026tbnw\u003d310\u0026usg\u003d__l1ZdHIPu2ziofAQfL3dRny0jIEY%3D\u0026vet\u003d1\u0026docid\u003dnjHNlJLcSdqJoM",
            "client_id": "jd1XCa5VLRyoq6I7TLYCgQ\u003d\u003d",
            "time_usec": 1517395952866338
},
        {
            "page_transition": "LINK",
            "title": "My Saves",
            "url": "https://www.google.co.in/save/list/dt_fav_images",
            "client_id": "jd1XCa5VLRyoq6I7TLYCgQ\u003d\u003d",
            "time_usec": 1517395917124347
},
        {
            "page_transition": "LINK",
            "title": "winston churchill quotes - Google Search",
            "url": "https://www.google.co.in/search?q\u003dwinston+churchill+quotes\u0026client\u003dms-android-motorola-rev2\u0026prmd\u003dibnv\u0026source\u003dlnms\u0026tbm\u003disch\u0026sa\u003dX\u0026ved\u003d0ahUKEwjL-K_C4IHZAhVK3mMKHRT7DdoQ_AUIESgB\u0026biw\u003d360\u0026bih\u003d512#imgrc\u003dI2md2eBHsnntjM:",
            "client_id": "jd1XCa5VLRyoq6I7TLYCgQ\u003d\u003d",
            "time_usec": 1517395902013520
},
        {
            "page_transition": "RELOAD",
            "title": "winston churchill quotes - Google Search",
            "url": "https://www.google.co.in/search?q\u003dwinston+churchill+quotes\u0026client\u003dms-android-motorola-rev2\u0026prmd\u003dibnv\u0026source\u003dlnms\u0026tbm\u003disch\u0026sa\u003dX\u0026ved\u003d0ahUKEwjL-K_C4IHZAhVK3mMKHRT7DdoQ_AUIESgB\u0026biw\u003d360\u0026bih\u003d512",
            "client_id": "jd1XCa5VLRyoq6I7TLYCgQ\u003d\u003d",
            "time_usec": 1517395900946338
},
        {
            "page_transition": "LINK",
            "title": "winston churchill quotes - Google Search",
            "url": "https://www.google.co.in/search?q\u003dwinston+churchill+quotes\u0026client\u003dms-android-motorola-rev2\u0026prmd\u003dibnv\u0026source\u003dlnms\u0026tbm\u003disch\u0026sa\u003dX\u0026ved\u003d0ahUKEwjL-K_C4IHZAhVK3mMKHRT7DdoQ_AUIESgB\u0026biw\u003d360\u0026bih\u003d512#imgrc\u003dI2md2eBHsnntjM:",
            "client_id": "jd1XCa5VLRyoq6I7TLYCgQ\u003d\u003d",
            "time_usec": 1517395880963058
},
        {
            "page_transition": "RELOAD",
            "title": "winston churchill quotes - Google Search",
            "url": "https://www.google.co.in/search?q\u003dwinston+churchill+quotes\u0026client\u003dms-android-motorola-rev2\u0026prmd\u003dibnv\u0026source\u003dlnms\u0026tbm\u003disch\u0026sa\u003dX\u0026ved\u003d0ahUKEwjL-K_C4IHZAhVK3mMKHRT7DdoQ_AUIESgB\u0026biw\u003d360\u0026bih\u003d512",
            "client_id": "jd1XCa5VLRyoq6I7TLYCgQ\u003d\u003d",
            "time_usec": 1517395866488568
},
        {
            "page_transition": "LINK",
            "title": "winston churchill quotes - Google Search",
            "url": "https://www.google.co.in/search?q\u003dwinston+churchill+quotes\u0026client\u003dms-android-motorola-rev2\u0026prmd\u003dibnv\u0026source\u003dlnms\u0026tbm\u003disch\u0026sa\u003dX\u0026ved\u003d0ahUKEwjL-K_C4IHZAhVK3mMKHRT7DdoQ_AUIESgB\u0026biw\u003d360\u0026bih\u003d512",
            "client_id": "jd1XCa5VLRyoq6I7TLYCgQ\u003d\u003d",
            "time_usec": 1517386321640418
},
        {
            "page_transition": "GENERATED",
            "title": "winston churchill quotes - Google Search",
            "url": "https://www.google.co.in/search?q\u003dwinston+churchill+quotes\u0026oq\u003dwiston+chur\u0026aqs\u003dchrome.2.69i57j0l3.5530j0j9\u0026client\u003dms-android-motorola-rev2\u0026sourceid\u003dchrome-mobile\u0026ie\u003dUTF-8",
            "client_id": "jd1XCa5VLRyoq6I7TLYCgQ\u003d\u003d",
            "time_usec": 1517386315028878
},
        {
            "page_transition": "RELOAD",
            "title": "blr to paris flight - Google Search",
            "url": "https://www.google.co.in/search?client\u003dms-android-motorola-rev2\u0026ei\u003dc7JwWtfcMMOo0gSGxoj4Bw\u0026q\u003dblr+to+paris+flight\u0026oq\u003dblr+to+par\u0026gs_l\u003dmobile-gws-serp.1.2.0l3j0i22i30k1l2.628251.633594.0.635372.12.11.1.5.5.0.231.1670.0j3j6.10.0....0...1c.1j4.64.mobile-gws-serp..1.11.1304.3..46j35i39k1j0i67k1j0i10i46i67k1j46i10i67k1j0i131k1j0i46k1.237.FpBPUOKLAk4#flt\u003dBLR./m/05qtj.2018-05-31.BLRAMS09W236~AMSCDG0AF1341*/m/05qtj.BLR.2018-06-14.CDGBLR0AF192;c:INR;e:1;sd:1;t:f;sp:0.INR.47814*0.INR.47792",
            "client_id": "jd1XCa5VLRyoq6I7TLYCgQ\u003d\u003d",
            "time_usec": 1517386307161435
},
        {
            "page_transition": "LINK",
            "title": "KLM Checkout",
            "url": "https://www.klm.com/ams/checkout-beta/ticket?backUrl\u003dhttps%3A%2F%2Fwww.klm.com%2Ftravel%2Fin_en%2Fapps%2Febt%2Fcalendar.htm%3Fapplication%3DEBT7%26country%3Din%26language%3Den%26trip%3DBLR%253A20180531%25400200%253AKL3813%253AV%253AV5PRIA%253EAMS%253A20180531%25401035%253AKL2007%253AL%253ECDG-CDG%253A20180614%25401020%253AAF0192%253AV%253AV5PRIA%253EBLR%26cabinClass%3DM%26numberOfAdults%3D1%26numberOfChildren%3D0%26numberOfInfants%3D0\u0026lang\u003den\u0026country\u003din\u0026frame\u003db2c\u0026WT.tsrc\u003dmetasearch\u0026WT.mc_id\u003dC_IN_metasearch_GoogleFlights_Organic_Website_null_GoogleID12345#/649492bd-f589-4a1c-9267-7bd75145b5ca/passenger",
            "client_id": "jd1XCa5VLRyoq6I7TLYCgQ\u003d\u003d",
            "time_usec": 1517338908509956
},
        {
            "page_transition": "LINK",
            "title": "KLM Checkout",
            "url": "https://www.klm.com/ams/checkout-beta/ticket?backUrl\u003dhttps%3A%2F%2Fwww.klm.com%2Ftravel%2Fin_en%2Fapps%2Febt%2Fcalendar.htm%3Fapplication%3DEBT7%26country%3Din%26language%3Den%26trip%3DBLR%253A20180531%25400200%253AKL3813%253AV%253AV5PRIA%253EAMS%253A20180531%25401035%253AKL2007%253AL%253ECDG-CDG%253A20180614%25401020%253AAF0192%253AV%253AV5PRIA%253EBLR%26cabinClass%3DM%26numberOfAdults%3D1%26numberOfChildren%3D0%26numberOfInfants%3D0\u0026lang\u003den\u0026country\u003din\u0026frame\u003db2c\u0026WT.tsrc\u003dmetasearch\u0026WT.mc_id\u003dC_IN_metasearch_GoogleFlights_Organic_Website_null_GoogleID12345#/649492bd-f589-4a1c-9267-7bd75145b5ca/passenger\u003d\u0026g_np_your-flight-details-passengers\u003d0",
            "client_id": "jd1XCa5VLRyoq6I7TLYCgQ\u003d\u003d",
            "time_usec": 1517338899656537
},
        {
            "page_transition": "LINK",
            "title": "KLM Checkout",
            "url": "https://www.klm.com/ams/checkout-beta/ticket?backUrl\u003dhttps%3A%2F%2Fwww.klm.com%2Ftravel%2Fin_en%2Fapps%2Febt%2Fcalendar.htm%3Fapplication%3DEBT7%26country%3Din%26language%3Den%26trip%3DBLR%253A20180531%25400200%253AKL3813%253AV%253AV5PRIA%253EAMS%253A20180531%25401035%253AKL2007%253AL%253ECDG-CDG%253A20180614%25401020%253AAF0192%253AV%253AV5PRIA%253EBLR%26cabinClass%3DM%26numberOfAdults%3D1%26numberOfChildren%3D0%26numberOfInfants%3D0\u0026lang\u003den\u0026country\u003din\u0026frame\u003db2c\u0026WT.tsrc\u003dmetasearch\u0026WT.mc_id\u003dC_IN_metasearch_GoogleFlights_Organic_Website_null_GoogleID12345#/649492bd-f589-4a1c-9267-7bd75145b5ca/passenger\u003d\u0026g_np_your-flight-details-passengers\u003d1",
            "client_id": "jd1XCa5VLRyoq6I7TLYCgQ\u003d\u003d",
            "time_usec": 1517338810900238
},
        {
            "page_transition": "LINK",
            "title": "KLM Checkout",
            "url": "https://www.klm.com/ams/checkout-beta/ticket?backUrl\u003dhttps%3A%2F%2Fwww.klm.com%2Ftravel%2Fin_en%2Fapps%2Febt%2Fcalendar.htm%3Fapplication%3DEBT7%26country%3Din%26language%3Den%26trip%3DBLR%253A20180531%25400200%253AKL3813%253AV%253AV5PRIA%253EAMS%253A20180531%25401035%253AKL2007%253AL%253ECDG-CDG%253A20180614%25401020%253AAF0192%253AV%253AV5PRIA%253EBLR%26cabinClass%3DM%26numberOfAdults%3D1%26numberOfChildren%3D0%26numberOfInfants%3D0\u0026lang\u003den\u0026country\u003din\u0026frame\u003db2c\u0026WT.tsrc\u003dmetasearch\u0026WT.mc_id\u003dC_IN_metasearch_GoogleFlights_Organic_Website_null_GoogleID12345#/649492bd-f589-4a1c-9267-7bd75145b5ca/passenger",
            "client_id": "jd1XCa5VLRyoq6I7TLYCgQ\u003d\u003d",
            "time_usec": 1517338784991911
},
        {
            "page_transition": "LINK",
            "title": "blr to paris flight - Google Search",
            "url": "https://www.google.co.in/search?client\u003dms-android-motorola-rev2\u0026ei\u003dc7JwWtfcMMOo0gSGxoj4Bw\u0026q\u003dblr+to+paris+flight\u0026oq\u003dblr+to+par\u0026gs_l\u003dmobile-gws-serp.1.2.0l3j0i22i30k1l2.628251.633594.0.635372.12.11.1.5.5.0.231.1670.0j3j6.10.0....0...1c.1j4.64.mobile-gws-serp..1.11.1304.3..46j35i39k1j0i67k1j0i10i46i67k1j46i10i67k1j0i131k1j0i46k1.237.FpBPUOKLAk4#flt\u003dBLR./m/05qtj.2018-05-31.BLRAMS09W236~AMSCDG0AF1341*/m/05qtj.BLR.2018-06-14.CDGBLR0AF192;c:INR;e:1;sd:1;t:f;sp:0.INR.47814*0.INR.47792",
            "client_id": "jd1XCa5VLRyoq6I7TLYCgQ\u003d\u003d",
            "time_usec": 1517338763446176
},
        {
            "page_transition": "LINK",
            "title": "blr to paris flight - Google Search",
            "url": "https://www.google.co.in/search?client\u003dms-android-motorola-rev2\u0026ei\u003dc7JwWtfcMMOo0gSGxoj4Bw\u0026q\u003dblr+to+paris+flight\u0026oq\u003dblr+to+par\u0026gs_l\u003dmobile-gws-serp.1.2.0l3j0i22i30k1l2.628251.633594.0.635372.12.11.1.5.5.0.231.1670.0j3j6.10.0....0...1c.1j4.64.mobile-gws-serp..1.11.1304.3..46j35i39k1j0i67k1j0i10i46i67k1j46i10i67k1j0i131k1j0i46k1.237.FpBPUOKLAk4#flt\u003dBLR./m/05qtj.2018-05-31.BLRAMS09W236~AMSCDG0AF1341*/m/05qtj.BLR.2018-06-14;c:INR;e:1;sd:1;t:f;sp:0.INR.47814",
            "client_id": "jd1XCa5VLRyoq6I7TLYCgQ\u003d\u003d",
            "time_usec": 1517338760771431
},
        {
            "page_transition": "LINK",
            "title": "blr to paris flight - Google Search",
            "url": "https://www.google.co.in/search?client\u003dms-android-motorola-rev2\u0026ei\u003dc7JwWtfcMMOo0gSGxoj4Bw\u0026q\u003dblr+to+paris+flight\u0026oq\u003dblr+to+par\u0026gs_l\u003dmobile-gws-serp.1.2.0l3j0i22i30k1l2.628251.633594.0.635372.12.11.1.5.5.0.231.1670.0j3j6.10.0....0...1c.1j4.64.mobile-gws-serp..1.11.1304.3..46j35i39k1j0i67k1j0i10i46i67k1j46i10i67k1j0i131k1j0i46k1.237.FpBPUOKLAk4#flt\u003dBLR./m/05qtj.2018-05-31*/m/05qtj.BLR.2018-06-14;c:INR;e:1;sd:1;t:f",
            "client_id": "jd1XCa5VLRyoq6I7TLYCgQ\u003d\u003d",
            "time_usec": 1517338754367123
},
        {
            "page_transition": "LINK",
            "title": "blr to paris flight - Google Search",
            "url": "https://www.google.co.in/search?client\u003dms-android-motorola-rev2\u0026ei\u003dc7JwWtfcMMOo0gSGxoj4Bw\u0026q\u003dblr+to+paris+flight\u0026oq\u003dblr+to+par\u0026gs_l\u003dmobile-gws-serp.1.2.0l3j0i22i30k1l2.628251.633594.0.635372.12.11.1.5.5.0.231.1670.0j3j6.10.0....0...1c.1j4.64.mobile-gws-serp..1.11.1304.3..46j35i39k1j0i67k1j0i10i46i67k1j46i10i67k1j0i131k1j0i46k1.237.FpBPUOKLAk4#flt\u003dBLR./m/05qtj.2018-05-31.BLRAMS09W236~AMSCDG0AF1341*/m/05qtj.BLR.2018-06-14;c:INR;e:1;sd:1;t:f;sp:0.INR.47814",
            "client_id": "jd1XCa5VLRyoq6I7TLYCgQ\u003d\u003d",
            "time_usec": 1517338717617359
},
        {
            "page_transition": "LINK",
            "title": "blr to paris flight - Google Search",
            "url": "https://www.google.co.in/search?client\u003dms-android-motorola-rev2\u0026ei\u003dc7JwWtfcMMOo0gSGxoj4Bw\u0026q\u003dblr+to+paris+flight\u0026oq\u003dblr+to+par\u0026gs_l\u003dmobile-gws-serp.1.2.0l3j0i22i30k1l2.628251.633594.0.635372.12.11.1.5.5.0.231.1670.0j3j6.10.0....0...1c.1j4.64.mobile-gws-serp..1.11.1304.3..46j35i39k1j0i67k1j0i10i46i67k1j46i10i67k1j0i131k1j0i46k1.237.FpBPUOKLAk4#flt\u003dBLR./m/05qtj.2018-05-31*/m/05qtj.BLR.2018-06-14;c:INR;e:1;sd:1;t:f",
            "client_id": "jd1XCa5VLRyoq6I7TLYCgQ\u003d\u003d",
            "time_usec": 1517338715974242
},
        {
            "page_transition": "LINK",
            "title": "blr to paris flight - Google Search",
            "url": "https://www.google.co.in/search?client\u003dms-android-motorola-rev2\u0026ei\u003dc7JwWtfcMMOo0gSGxoj4Bw\u0026q\u003dblr+to+paris+flight\u0026oq\u003dblr+to+par\u0026gs_l\u003dmobile-gws-serp.1.2.0l3j0i22i30k1l2.628251.633594.0.635372.12.11.1.5.5.0.231.1670.0j3j6.10.0....0...1c.1j4.64.mobile-gws-serp..1.11.1304.3..46j35i39k1j0i67k1j0i10i46i67k1j46i10i67k1j0i131k1j0i46k1.237.FpBPUOKLAk4#flt\u003dBLR..2018-05-31*.BLR.2018-06-14;c:INR;e:1;sd:1;t:e",
            "client_id": "jd1XCa5VLRyoq6I7TLYCgQ\u003d\u003d",
            "time_usec": 1517338702472780
},
        {
            "page_transition": "LINK",
            "title": "blr to paris flight - Google Search",
            "url": "https://www.google.co.in/search?client\u003dms-android-motorola-rev2\u0026ei\u003dc7JwWtfcMMOo0gSGxoj4Bw\u0026q\u003dblr+to+paris+flight\u0026oq\u003dblr+to+par\u0026gs_l\u003dmobile-gws-serp.1.2.0l3j0i22i30k1l2.628251.633594.0.635372.12.11.1.5.5.0.231.1670.0j3j6.10.0....0...1c.1j4.64.mobile-gws-serp..1.11.1304.3..46j35i39k1j0i67k1j0i10i46i67k1j46i10i67k1j0i131k1j0i46k1.237.FpBPUOKLAk4#flt\u003dBLR./m/05qtj.2018-05-31*/m/05qtj.BLR.2018-06-14;c:INR;e:1;sd:1;t:f",
            "client_id": "jd1XCa5VLRyoq6I7TLYCgQ\u003d\u003d",
            "time_usec": 1517338661531995
},
        {
            "page_transition": "LINK",
            "title": "blr to paris flight - Google Search",
            "url": "https://www.google.co.in/search?client\u003dms-android-motorola-rev2\u0026ei\u003dc7JwWtfcMMOo0gSGxoj4Bw\u0026q\u003dblr+to+paris+flight\u0026oq\u003dblr+to+par\u0026gs_l\u003dmobile-gws-serp.1.2.0l3j0i22i30k1l2.628251.633594.0.635372.12.11.1.5.5.0.231.1670.0j3j6.10.0....0...1c.1j4.64.mobile-gws-serp..1.11.1304.3..46j35i39k1j0i67k1j0i10i46i67k1j46i10i67k1j0i131k1j0i46k1.237.FpBPUOKLAk4#flt\u003dBLR./m/05qtj.2018-02-15*/m/05qtj.BLR.2018-02-28;c:INR;e:1;m:c.0;sd:1;t:f",
            "client_id": "jd1XCa5VLRyoq6I7TLYCgQ\u003d\u003d",
            "time_usec": 1517338634145764
},
        {
            "page_transition": "FORM_SUBMIT",
            "title": "blr to paris flight - Google Search",
            "url": "https://www.google.co.in/search?client\u003dms-android-motorola-rev2\u0026ei\u003dc7JwWtfcMMOo0gSGxoj4Bw\u0026q\u003dblr+to+paris+flight\u0026oq\u003dblr+to+par\u0026gs_l\u003dmobile-gws-serp.1.2.0l3j0i22i30k1l2.628251.633594.0.635372.12.11.1.5.5.0.231.1670.0j3j6.10.0....0...1c.1j4.64.mobile-gws-serp..1.11.1304.3..46j35i39k1j0i67k1j0i10i46i67k1j46i10i67k1j0i131k1j0i46k1.237.FpBPUOKLAk4",
            "client_id": "jd1XCa5VLRyoq6I7TLYCgQ\u003d\u003d",
            "time_usec": 1517338596363637
},
        {
            "page_transition": "GENERATED",
            "title": "robbin tuney - Google Search",
            "url": "https://www.google.co.in/search?q\u003drobbin+tuney\u0026oq\u003drobbin+tuney\u0026aqs\u003dchrome..69i57.8468j0j7\u0026client\u003dms-android-motorola-rev2\u0026sourceid\u003dchrome-mobile\u0026ie\u003dUTF-8",
            "client_id": "jd1XCa5VLRyoq6I7TLYCgQ\u003d\u003d",
            "time_usec": 1517337960146984
},
        {
            "page_transition": "FORM_SUBMIT",
            "title": "robbin tuney song - Google Search",
            "url": "https://www.google.co.in/search?client\u003dms-android-motorola-rev2\u0026ei\u003dc7JwWtfcMMOo0gSGxoj4Bw\u0026q\u003drobbin+tuney+song\u0026oq\u003drobbin+tuney+son\u0026gs_l\u003dmobile-gws-serp.1.0.33i160k1.2429.6111.0.6626.9.6.2.0.0.0.252.1004.0j3j2.5.0....0...1c.1j4.64.mobile-gws-serp..2.5.795...0i22i10i30k1.0.i-16zAVvpHk",
            "client_id": "jd1XCa5VLRyoq6I7TLYCgQ\u003d\u003d",
            "time_usec": 1517337958790237
},
        {
            "page_transition": "FORM_SUBMIT",
            "title": "robbin tuney son - Google Search",
            "url": "https://www.google.co.in/search?client\u003dms-android-motorola-rev2\u0026ei\u003dz7JwWsr2G9Ps0AS2wqrgCg\u0026q\u003drobbin+tuney+son\u0026oq\u003drobbin+tuney+son\u0026gs_l\u003dmobile-gws-serp.3..33i160k1.1761.1761.0.2520.1.1.0.0.0.0.153.153.0j1.1.0....0...1c.1j4.64.mobile-gws-serp..0.1.153....0.fH7GQd0Fbf8",
            "client_id": "jd1XCa5VLRyoq6I7TLYCgQ\u003d\u003d",
            "time_usec": 1517337957518706
},
        {
            "page_transition": "GENERATED",
            "title": "aquifer - Google Search",
            "url": "https://www.google.co.in/search?q\u003daquifer\u0026oq\u003dacquifer\u0026aqs\u003dchrome.1.69i57j0l3.5886j1j9\u0026client\u003dms-android-motorola-rev2\u0026sourceid\u003dchrome-mobile\u0026ie\u003dUTF-8",
            "client_id": "jd1XCa5VLRyoq6I7TLYCgQ\u003d\u003d",
            "time_usec": 1517337638135119
},
        {
            "page_transition": "FORM_SUBMIT",
            "title": "robbin tuney son - Google Search",
            "url": "https://www.google.co.in/search?client\u003dms-android-motorola-rev2\u0026ei\u003dz7JwWsr2G9Ps0AS2wqrgCg\u0026q\u003drobbin+tuney+son\u0026oq\u003drobbin+tuney+son\u0026gs_l\u003dmobile-gws-serp.3..33i160k1.1761.1761.0.2520.1.1.0.0.0.0.153.153.0j1.1.0....0...1c.1j4.64.mobile-gws-serp..0.1.153....0.fH7GQd0Fbf8",
            "client_id": "jd1XCa5VLRyoq6I7TLYCgQ\u003d\u003d",
            "time_usec": 1517335251264070
},
        {
            "page_transition": "FORM_SUBMIT",
            "title": "robbin tuney song - Google Search",
            "url": "https://www.google.co.in/search?client\u003dms-android-motorola-rev2\u0026ei\u003dc7JwWtfcMMOo0gSGxoj4Bw\u0026q\u003drobbin+tuney+song\u0026oq\u003drobbin+tuney+son\u0026gs_l\u003dmobile-gws-serp.1.0.33i160k1.2429.6111.0.6626.9.6.2.0.0.0.252.1004.0j3j2.5.0....0...1c.1j4.64.mobile-gws-serp..2.5.795...0i22i10i30k1.0.i-16zAVvpHk",
            "client_id": "jd1XCa5VLRyoq6I7TLYCgQ\u003d\u003d",
            "time_usec": 1517335247339064
},
        {
            "page_transition": "GENERATED",
            "title": "robbin tuney - Google Search",
            "url": "https://www.google.co.in/search?q\u003drobbin+tuney\u0026oq\u003drobbin+tuney\u0026aqs\u003dchrome..69i57.8468j0j7\u0026client\u003dms-android-motorola-rev2\u0026sourceid\u003dchrome-mobile\u0026ie\u003dUTF-8",
            "client_id": "jd1XCa5VLRyoq6I7TLYCgQ\u003d\u003d",
            "time_usec": 1517335239727081
},
        {
            "page_transition": "LINK",
            "title": "Robin Tunney - Wikipedia",
            "url": "https://en.m.wikipedia.org/wiki/Robin_Tunney",
            "client_id": "jd1XCa5VLRyoq6I7TLYCgQ\u003d\u003d",
            "time_usec": 1517335163083115
},
        {
            "page_transition": "GENERATED",
            "title": "robbin tuney - Google Search",
            "url": "https://www.google.co.in/search?q\u003drobbin+tuney\u0026oq\u003drobbin+tuney\u0026aqs\u003dchrome..69i57.8468j0j7\u0026client\u003dms-android-motorola-rev2\u0026sourceid\u003dchrome-mobile\u0026ie\u003dUTF-8",
            "client_id": "jd1XCa5VLRyoq6I7TLYCgQ\u003d\u003d",
            "time_usec": 1517335155235949
},
        {
            "page_transition": "RELOAD",
            "title": "New tab",
            "url": "chrome-native://newtab/",
            "client_id": "jd1XCa5VLRyoq6I7TLYCgQ\u003d\u003d",
            "time_usec": 1517297235978099
},
        {
            "page_transition": "AUTO_TOPLEVEL",
            "title": "New tab",
            "url": "chrome-native://newtab/",
            "client_id": "jd1XCa5VLRyoq6I7TLYCgQ\u003d\u003d",
            "time_usec": 1517243643519045
},
        {
            "page_transition": "GENERATED",
            "title": "low hanging fruit - Google Search",
            "url": "https://www.google.co.in/search?q\u003dlow+hanging+fruit\u0026oq\u003dlow+han\u0026aqs\u003dchrome.1.69i57j0l3.4166j0j7\u0026client\u003dms-android-motorola-rev2\u0026sourceid\u003dchrome-mobile\u0026ie\u003dUTF-8",
            "client_id": "jd1XCa5VLRyoq6I7TLYCgQ\u003d\u003d",
            "time_usec": 1517243634914060
},
        {
            "page_transition": "GENERATED",
            "title": "udacity machine learning nanodegree - Google Search",
            "url": "https://www.google.co.in/search?q\u003dudacity+machine+learning+nanodegree\u0026oq\u003dUdacity+mac\u0026aqs\u003dchrome.2.69i57j0l3.5179j0j4\u0026client\u003dms-android-motorola-rev2\u0026sourceid\u003dchrome-mobile\u0026ie\u003dUTF-8",
            "client_id": "jd1XCa5VLRyoq6I7TLYCgQ\u003d\u003d",
            "time_usec": 1517231131889109
},
        {
            "page_transition": "LINK",
            "title": "Machine Learning Engineer Nanodegree Program | Udacity",
            "url": "https://in.udacity.com/course/machine-learning-engineer-nanodegree--nd009?utm_source\u003dgoogle\u0026utm_medium\u003dnewacq\u0026utm_campaign\u003dPR-Search-D-Purchase-Brand-Courses-BMM\u0026utm_term\u003d%2Budacity%20%2Bmachine%20%2Blearning%20%2Bnanodegree\u0026gclid\u003dCjwKCAiAqbvTBRAPEiwANEkyCIQbqgWwuquXn0PNEtZmIjv3azC5eN0Ydu06CCIDBXTwOKAmly1BuRoCfvsQAvD_BwE",
            "client_id": "jd1XCa5VLRyoq6I7TLYCgQ\u003d\u003d",
            "time_usec": 1517230949627292
},
        {
            "page_transition": "GENERATED",
            "title": "udacity machine learning nanodegree - Google Search",
            "url": "https://www.google.co.in/search?q\u003dudacity+machine+learning+nanodegree\u0026oq\u003dUdacity+mac\u0026aqs\u003dchrome.2.69i57j0l3.5179j0j4\u0026client\u003dms-android-motorola-rev2\u0026sourceid\u003dchrome-mobile\u0026ie\u003dUTF-8",
            "client_id": "jd1XCa5VLRyoq6I7TLYCgQ\u003d\u003d",
            "time_usec": 1517230944964315
},
        {
            "page_transition": "LINK",
            "title": "Nanodegree Programs | Udacity",
            "url": "https://www.udacity.com/nanodegree",
            "client_id": "jd1XCa5VLRyoq6I7TLYCgQ\u003d\u003d",
            "time_usec": 1517230935078262
},
        {
            "page_transition": "LINK",
            "title": "Udacity | Udacity",
            "url": "https://in.udacity.com/",
            "client_id": "jd1XCa5VLRyoq6I7TLYCgQ\u003d\u003d",
            "time_usec": 1517230932790962
},
        {
            "page_transition": "LINK",
            "title": "Udacity | Udacity",
            "url": "https://in.udacity.com/404",
            "client_id": "jd1XCa5VLRyoq6I7TLYCgQ\u003d\u003d",
            "time_usec": 1517230930057117
},
        {
            "page_transition": "LINK",
            "title": "Nanodegree Programs | Udacity",
            "url": "https://www.udacity.com/nanodegree",
            "client_id": "jd1XCa5VLRyoq6I7TLYCgQ\u003d\u003d",
            "time_usec": 1517230879017848
},
        {
            "page_transition": "GENERATED",
            "title": "udacity nanodegree - Google Search",
            "url": "https://www.google.co.in/search?q\u003dudacity+nanodegree\u0026oq\u003dudacity+\u0026aqs\u003dchrome.2.69i57j0l3.5595j0j9\u0026client\u003dms-android-motorola-rev2\u0026sourceid\u003dchrome-mobile\u0026ie\u003dUTF-8",
            "client_id": "jd1XCa5VLRyoq6I7TLYCgQ\u003d\u003d",
            "time_usec": 1517230869419374
},
        {
            "page_transition": "RELOAD",
            "title": "praniti shinde - Google Search",
            "url": "https://www.google.co.in/search?q\u003dpraniti+shinde\u0026client\u003dms-android-motorola-rev2\u0026prmd\u003dinv\u0026source\u003dlnms\u0026tbm\u003disch\u0026sa\u003dX\u0026ved\u003d0ahUKEwjA94an-_zYAhUDSq0KHZUmCBYQ_AUIESgB\u0026biw\u003d360\u0026bih\u003d512",
            "client_id": "jd1XCa5VLRyoq6I7TLYCgQ\u003d\u003d",
            "time_usec": 1517230861446715
},
        {
            "page_transition": "LINK",
            "title": "Matrimonials on Mobile - Matrimony Apps - Shaadi.com",
            "url": "https://www.shaadi.com/dpl?ml\u003dbFNIMzY0NDkzMjM%3D\u0026goUrl\u003dhttps%3A%2F%2Fwww.shaadi.com%2Fregistration%2Fuser%2Flogin%3Fgo%3Dhttp%253A%252F%252Fwww.shaadi.com%252Fprofile%253Fprofileid%253D4SH18983639%2526set_profiles%253D4SH18983639%25257CNSH95291888%25257CSSH29669727%25257CmSH63067420%2526set_profiles_back%253Dnewmatches%2526srchname%253Dmm_mailer_pp%2526evt_ref%253DbmV3LW1hdGNobWFpbC1i\u0026entpt\u003dbmV3LW1hdGNobWFpbC1i\u0026evt_ref\u003dbmV3LW1hdGNobWFpbC1i\u0026st\u003dy",
            "client_id": "jd1XCa5VLRyoq6I7TLYCgQ\u003d\u003d",
            "time_usec": 1517227936078689
},
        {
            "page_transition": "LINK",
            "title": "praniti shinde - Google Search",
            "url": "https://www.google.co.in/search?q\u003dpraniti+shinde\u0026client\u003dms-android-motorola-rev2\u0026prmd\u003dinv\u0026source\u003dlnms\u0026tbm\u003disch\u0026sa\u003dX\u0026ved\u003d0ahUKEwjA94an-_zYAhUDSq0KHZUmCBYQ_AUIESgB\u0026biw\u003d360\u0026bih\u003d512",
            "client_id": "jd1XCa5VLRyoq6I7TLYCgQ\u003d\u003d",
            "time_usec": 1517221709704496
},
        {
            "page_transition": "GENERATED",
            "title": "praniti shinde - Google Search",
            "url": "https://www.google.co.in/search?q\u003dpraniti+shinde\u0026oq\u003dpranoti+shi\u0026aqs\u003dchrome.1.69i57j0l3.10500j0j7\u0026client\u003dms-android-motorola-rev2\u0026sourceid\u003dchrome-mobile\u0026ie\u003dUTF-8",
            "client_id": "jd1XCa5VLRyoq6I7TLYCgQ\u003d\u003d",
            "time_usec": 1517221706705177
},
        {
            "page_transition": "LINK",
            "title": "New tab",
            "url": "chrome-native://newtab/",
            "client_id": "jd1XCa5VLRyoq6I7TLYCgQ\u003d\u003d",
            "time_usec": 1517221693997376
},
        {
            "page_transition": "RELOAD",
            "title": "yhai - Google Search",
            "url": "https://www.google.co.in/search?q\u003dyhai\u0026oq\u003dyhai\u0026aqs\u003dchrome..69i57j0j5j0.1244j0j9\u0026client\u003dms-android-motorola-rev2\u0026sourceid\u003dchrome-mobile\u0026ie\u003dUTF-8",
            "client_id": "jd1XCa5VLRyoq6I7TLYCgQ\u003d\u003d",
            "time_usec": 1517160703320730
},
        {
            "page_transition": "RELOAD",
            "title": "Participate at YHAI National Level Adventure Programs organized by National Office",
            "url": "http://www.yhaindia.org/national-level-program.php",
            "client_id": "jd1XCa5VLRyoq6I7TLYCgQ\u003d\u003d",
            "time_usec": 1517160699601661
},
        {
            "page_transition": "RELOAD",
            "title": "koramangala - Google Search",
            "url": "https://www.google.co.in/search?q\u003dkoramangala\u0026oq\u003dkorma\u0026aqs\u003dchrome.1.69i57j0l3.2000j0j4\u0026client\u003dms-android-motorola-rev2\u0026sourceid\u003dchrome-mobile\u0026ie\u003dUTF-8",
            "client_id": "jd1XCa5VLRyoq6I7TLYCgQ\u003d\u003d",
            "time_usec": 1517160697919159
},
        {
            "page_transition": "RELOAD",
            "title": "koramangala - Google Search",
            "url": "https://www.google.co.in/search?q\u003dkoramangala\u0026oq\u003dkorma\u0026aqs\u003dchrome.1.69i57j0l3.2000j0j4\u0026client\u003dms-android-motorola-rev2\u0026sourceid\u003dchrome-mobile\u0026ie\u003dUTF-8",
            "client_id": "jd1XCa5VLRyoq6I7TLYCgQ\u003d\u003d",
            "time_usec": 1517129600493000
},
        {
            "page_transition": "RELOAD",
            "title": "smallys mg road - Google Search",
            "url": "https://www.google.co.in/search?client\u003dms-android-motorola-rev2\u0026ei\u003dn29sWrSxGYjPvgSAsKDQBw\u0026q\u003dsmallys+mg+road\u0026oq\u003dsmallys+mg+road\u0026gs_l\u003dmobile-gws-serp.3..0.60296157.60303649.0.60303848.17.16.1.7.7.0.274.3094.0j1j13.14.0....0...1c.1j4.64.mobile-gws-serp..2.15.2006.3..35i39k1j0i131k1j0i2i159i131k1j0i67k1j0i10k1j0i22i10i30k1j0i22i30k1.1662.JZkDUii1zeY",
            "client_id": "jd1XCa5VLRyoq6I7TLYCgQ\u003d\u003d",
            "time_usec": 1517129600074683
},
        {
            "page_transition": "FORM_SUBMIT",
            "title": "shirur - Google Search",
            "url": "https://www.google.co.in/search?client\u003dms-android-motorola-rev2\u0026ei\u003dN1ttWojNIYKY8QW2yLOoCw\u0026q\u003dshirur\u0026oq\u003dshirur\u0026gs_l\u003dmobile-gws-serp.1.0.0l4j0i2i159k1.36141.38822.0.41275.8.8.0.1.1.0.590.1813.0j1j3j1j0j1.7.0....0...1c.1j4.64.mobile-gws-serp..1.6.1671.0..0i10i67k1j0i67k1j0i131k1j0i2i159i131k1.259.1oNnqLmrMnc",
            "client_id": "jd1XCa5VLRyoq6I7TLYCgQ\u003d\u003d",
            "time_usec": 1517129535758898
},
        {
            "page_transition": "RELOAD",
            "title": "smallys mg road - Google Search",
            "url": "https://www.google.co.in/search?client\u003dms-android-motorola-rev2\u0026ei\u003dn29sWrSxGYjPvgSAsKDQBw\u0026q\u003dsmallys+mg+road\u0026oq\u003dsmallys+mg+road\u0026gs_l\u003dmobile-gws-serp.3..0.60296157.60303649.0.60303848.17.16.1.7.7.0.274.3094.0j1j13.14.0....0...1c.1j4.64.mobile-gws-serp..2.15.2006.3..35i39k1j0i131k1j0i2i159i131k1j0i67k1j0i10k1j0i22i10i30k1j0i22i30k1.1662.JZkDUii1zeY",
            "client_id": "jd1XCa5VLRyoq6I7TLYCgQ\u003d\u003d",
            "time_usec": 1517129493497378
},
        {
            "page_transition": "FORM_SUBMIT",
            "title": "easy tiger bar \u0026 cafe - Google Search",
            "url": "https://www.google.co.in/search?client\u003dms-android-motorola-rev2\u0026ei\u003dN1ttWojNIYKY8QW2yLOoCw\u0026q\u003deasy+tiger+bar+%26+cafe\u0026oq\u003deasy+tiger+cafe\u0026gs_l\u003dmobile-gws-serp.1.1.0j0i22i30k1.49485.55283.0.56620.17.15.1.3.3.0.478.3992.2-11j1j2.14.0....0...1c.1j4.64.mobile-gws-serp..5.12.2287.3..35i39k1j0i131k1j0i67k1j0i2i159i131k1j0i2i159k1.199.MSSCkg_-vD0",
            "client_id": "jd1XCa5VLRyoq6I7TLYCgQ\u003d\u003d",
            "time_usec": 1517129492030269
},
        {
            "page_transition": "FORM_SUBMIT",
            "title": "shiroor - Google Search",
            "url": "https://www.google.co.in/search?client\u003dms-android-motorola-rev2\u0026ei\u003dNm9tWqLrKMac0gSW5oegBw\u0026q\u003dshiroor\u0026oq\u003dshiroo\u0026gs_l\u003dmobile-gws-serp.1.0.0l4j0i2i159k1.8131504.8137836.0.8141034.13.9.4.1.1.0.361.1759.0j2j5j1.8.0....0...1c.1j4.64.mobile-gws-serp..1.12.1717.3..35i39k1j0i131k1j0i2i159i131k1j0i67k1j0i131i67k1j0i131i46i67k1j46i131i67k1.183.HuG3kFI_SKo",
            "client_id": "jd1XCa5VLRyoq6I7TLYCgQ\u003d\u003d",
            "time_usec": 1517129476670314
},
        {
            "page_transition": "LINK",
            "title": "Atlassian Expert Partners, GitHub, DevOps, Sales \u0026 Sevices | Amrut Software",
            "url": "http://www.amrutsoftware.com/",
            "client_id": "jd1XCa5VLRyoq6I7TLYCgQ\u003d\u003d",
            "time_usec": 1517121653997012
},
        {
            "page_transition": "LINK",
            "title": "About Amrut Software | Amrut Software",
            "url": "http://www.amrutsoftware.com/about-us/",
            "client_id": "jd1XCa5VLRyoq6I7TLYCgQ\u003d\u003d",
            "time_usec": 1517121595711881
},
        {
            "page_transition": "LINK",
            "title": "Atlassian Expert Partners, GitHub, DevOps, Sales \u0026 Sevices | Amrut Software",
            "url": "http://www.amrutsoftware.com/",
            "client_id": "jd1XCa5VLRyoq6I7TLYCgQ\u003d\u003d",
            "time_usec": 1517121573710446
},
        {
            "page_transition": "LINK",
            "title": "Atlassian Expert Partners, GitHub, DevOps, Sales \u0026 Sevices | Amrut Software",
            "url": "http://www.amrutsoftware.com/",
            "client_id": "jd1XCa5VLRyoq6I7TLYCgQ\u003d\u003d",
            "time_usec": 1517121543950817
},
        {
            "page_transition": "LINK",
            "title": "Contact | Amrut Software",
            "url": "http://www.amrutsoftware.com/contact/",
            "client_id": "jd1XCa5VLRyoq6I7TLYCgQ\u003d\u003d",
            "time_usec": 1517121509460633
},
        {
            "page_transition": "LINK",
            "title": "Atlassian Expert Partners, GitHub, DevOps, Sales \u0026 Sevices | Amrut Software",
            "url": "http://www.amrutsoftware.com/",
            "client_id": "jd1XCa5VLRyoq6I7TLYCgQ\u003d\u003d",
            "time_usec": 1517121440717677
},
        {
            "page_transition": "FORM_SUBMIT",
            "title": "easy tiger bar \u0026 cafe - Google Search",
            "url": "https://www.google.co.in/search?client\u003dms-android-motorola-rev2\u0026ei\u003dN1ttWojNIYKY8QW2yLOoCw\u0026q\u003deasy+tiger+bar+%26+cafe\u0026oq\u003deasy+tiger+cafe\u0026gs_l\u003dmobile-gws-serp.1.1.0j0i22i30k1.49485.55283.0.56620.17.15.1.3.3.0.478.3992.2-11j1j2.14.0....0...1c.1j4.64.mobile-gws-serp..5.12.2287.3..35i39k1j0i131k1j0i67k1j0i2i159i131k1j0i2i159k1.199.MSSCkg_-vD0",
            "client_id": "jd1XCa5VLRyoq6I7TLYCgQ\u003d\u003d",
            "time_usec": 1517121379153881
},
        {
            "page_transition": "LINK",
            "title": "easy tiger bar \u0026 cafe - Google Search",
            "url": "https://www.google.co.in/search?client\u003dms-android-motorola-rev2\u0026ei\u003dN1ttWojNIYKY8QW2yLOoCw\u0026q\u003deasy+tiger+bar+%26+cafe\u0026oq\u003deasy+tiger+cafe\u0026gs_l\u003dmobile-gws-serp.1.1.0j0i22i30k1.49485.55283.0.56620.17.15.1.3.3.0.478.3992.2-11j1j2.14.0....0...1c.1j4.64.mobile-gws-serp..5.12.2287.3..35i39k1j0i131k1j0i67k1j0i2i159i131k1j0i2i159k1.199.MSSCkg_-vD0#activetab\u003dmain\u0026fid\u003d0x3bae167c4b8e180f:0x2789709f32f12c5b\u0026fpstate\u003dluuv\u0026imagekey\u003d!1e3!2s-aqsedNqezds/WVW-_hT-J9I/AAAAAAAAKqg/5dJVVz5AcFMe2EpUMvxuxgYXu7-MennaQCLIBGAYYCw\u0026viewerState\u003dga",
            "client_id": "jd1XCa5VLRyoq6I7TLYCgQ\u003d\u003d",
            "time_usec": 1517121378343273
},
        {
            "page_transition": "LINK",
            "title": "easy tiger bar \u0026 cafe - Google Search",
            "url": "https://www.google.co.in/search?client\u003dms-android-motorola-rev2\u0026ei\u003dN1ttWojNIYKY8QW2yLOoCw\u0026q\u003deasy+tiger+bar+%26+cafe\u0026oq\u003deasy+tiger+cafe\u0026gs_l\u003dmobile-gws-serp.1.1.0j0i22i30k1.49485.55283.0.56620.17.15.1.3.3.0.478.3992.2-11j1j2.14.0....0...1c.1j4.64.mobile-gws-serp..5.12.2287.3..35i39k1j0i131k1j0i67k1j0i2i159i131k1j0i2i159k1.199.MSSCkg_-vD0#fid\u003d0x3bae167c4b8e180f:0x2789709f32f12c5b\u0026fpstate\u003dluuv\u0026imagekey\u003d!1e3!2s-aqsedNqezds/WVW-_hT-J9I/AAAAAAAAKqg/5dJVVz5AcFMe2EpUMvxuxgYXu7-MennaQCLIBGAYYCw\u0026viewerState\u003dga",
            "client_id": "jd1XCa5VLRyoq6I7TLYCgQ\u003d\u003d",
            "time_usec": 1517121343362316
},
        {
            "page_transition": "FORM_SUBMIT",
            "title": "easy tiger bar \u0026 cafe - Google Search",
            "url": "https://www.google.co.in/search?client\u003dms-android-motorola-rev2\u0026ei\u003dN1ttWojNIYKY8QW2yLOoCw\u0026q\u003deasy+tiger+bar+%26+cafe\u0026oq\u003deasy+tiger+cafe\u0026gs_l\u003dmobile-gws-serp.1.1.0j0i22i30k1.49485.55283.0.56620.17.15.1.3.3.0.478.3992.2-11j1j2.14.0....0...1c.1j4.64.mobile-gws-serp..5.12.2287.3..35i39k1j0i131k1j0i67k1j0i2i159i131k1j0i2i159k1.199.MSSCkg_-vD0",
            "client_id": "jd1XCa5VLRyoq6I7TLYCgQ\u003d\u003d",
            "time_usec": 1517121334094392
},
        {
            "page_transition": "RELOAD",
            "title": "smallys mg road - Google Search",
            "url": "https://www.google.co.in/search?client\u003dms-android-motorola-rev2\u0026ei\u003dn29sWrSxGYjPvgSAsKDQBw\u0026q\u003dsmallys+mg+road\u0026oq\u003dsmallys+mg+road\u0026gs_l\u003dmobile-gws-serp.3..0.60296157.60303649.0.60303848.17.16.1.7.7.0.274.3094.0j1j13.14.0....0...1c.1j4.64.mobile-gws-serp..2.15.2006.3..35i39k1j0i131k1j0i2i159i131k1j0i67k1j0i10k1j0i22i10i30k1j0i22i30k1.1662.JZkDUii1zeY",
            "client_id": "jd1XCa5VLRyoq6I7TLYCgQ\u003d\u003d",
            "time_usec": 1517121275854103
},
        {
            "page_transition": "FORM_SUBMIT",
            "title": "smallys mg road - Google Search",
            "url": "https://www.google.co.in/search?client\u003dms-android-motorola-rev2\u0026ei\u003dn29sWrSxGYjPvgSAsKDQBw\u0026q\u003dsmallys+mg+road\u0026oq\u003dsmallys+mg+road\u0026gs_l\u003dmobile-gws-serp.3..0.60296157.60303649.0.60303848.17.16.1.7.7.0.274.3094.0j1j13.14.0....0...1c.1j4.64.mobile-gws-serp..2.15.2006.3..35i39k1j0i131k1j0i2i159i131k1j0i67k1j0i10k1j0i22i10i30k1j0i22i30k1.1662.JZkDUii1zeY",
            "client_id": "jd1XCa5VLRyoq6I7TLYCgQ\u003d\u003d",
            "time_usec": 1517116214979162
},
        {
            "page_transition": "FORM_SUBMIT",
            "title": "koramangala brewery - Google Search",
            "url": "https://www.google.co.in/search?client\u003dms-android-motorola-rev2\u0026ei\u003dkG9sWv7WCor4vgS4sbbYDw\u0026q\u003dkoramangala+brewery\u0026oq\u003dkoramangala+brewery\u0026gs_l\u003dmobile-gws-serp.3..0i20i263k1l2j0i22i30k1l3.485.9682.0.10326.7.6.1.0.0.0.442.1220.2-2j1j1.4.0....0...1c.1j4.64.mobile-gws-serp..3.4.833...0j0i8i13i30k1.817.V94jB6ij8sM",
            "client_id": "jd1XCa5VLRyoq6I7TLYCgQ\u003d\u003d",
            "time_usec": 1517056058055594
},
        {
            "page_transition": "FORM_SUBMIT",
            "title": "koramangala brewery - Google Search",
            "url": "https://www.google.co.in/search?client\u003dms-android-motorola-rev2\u0026ei\u003dkG9sWv7WCor4vgS4sbbYDw\u0026q\u003dkoramangala+brewery\u0026oq\u003dkoramangala+brewery\u0026gs_l\u003dmobile-gws-serp.3..0i20i263k1l2j0i22i30k1l3.485.9682.0.10326.7.6.1.0.0.0.442.1220.2-2j1j1.4.0....0...1c.1j4.64.mobile-gws-serp..3.4.833...0j0i8i13i30k1.817.V94jB6ij8sM",
            "client_id": "jd1XCa5VLRyoq6I7TLYCgQ\u003d\u003d",
            "time_usec": 1517055947837997
},
        {
            "page_transition": "LINK",
            "title": "koramangala brewery - Google Search",
            "url": "https://www.google.co.in/search?client\u003dms-android-motorola-rev2\u0026ei\u003dkG9sWv7WCor4vgS4sbbYDw\u0026q\u003dkoramangala+brewery\u0026oq\u003dkoramangala+brewery\u0026gs_l\u003dmobile-gws-serp.3..0i20i263k1l2j0i22i30k1l3.485.9682.0.10326.7.6.1.0.0.0.442.1220.2-2j1j1.4.0....0...1c.1j4.64.mobile-gws-serp..3.4.833...0j0i8i13i30k1.817.V94jB6ij8sM#istate\u003dlrl:xpd",
            "client_id": "jd1XCa5VLRyoq6I7TLYCgQ\u003d\u003d",
            "time_usec": 1517055926212812
},
        {
            "page_transition": "FORM_SUBMIT",
            "title": "koramangala brewery - Google Search",
            "url": "https://www.google.co.in/search?client\u003dms-android-motorola-rev2\u0026ei\u003dkG9sWv7WCor4vgS4sbbYDw\u0026q\u003dkoramangala+brewery\u0026oq\u003dkoramangala+brewery\u0026gs_l\u003dmobile-gws-serp.3..0i20i263k1l2j0i22i30k1l3.485.9682.0.10326.7.6.1.0.0.0.442.1220.2-2j1j1.4.0....0...1c.1j4.64.mobile-gws-serp..3.4.833...0j0i8i13i30k1.817.V94jB6ij8sM",
            "client_id": "jd1XCa5VLRyoq6I7TLYCgQ\u003d\u003d",
            "time_usec": 1517055903572956
},
        {
            "page_transition": "GENERATED",
            "title": "koramangala - Google Search",
            "url": "https://www.google.co.in/search?q\u003dkoramangala\u0026oq\u003dkorma\u0026aqs\u003dchrome.1.69i57j0l3.2000j0j4\u0026client\u003dms-android-motorola-rev2\u0026sourceid\u003dchrome-mobile\u0026ie\u003dUTF-8",
            "client_id": "jd1XCa5VLRyoq6I7TLYCgQ\u003d\u003d",
            "time_usec": 1517055888328328
},
        {
            "page_transition": "LINK",
            "title": "Participate at YHAI National Level Adventure Programs organized by National Office",
            "url": "http://www.yhaindia.org/national-level-program.php",
            "client_id": "jd1XCa5VLRyoq6I7TLYCgQ\u003d\u003d",
            "time_usec": 1517054377912229
},
        {
            "page_transition": "LINK",
            "title": "",
            "url": "http://www.yhaindia.org/adventure-programme.php?id\u003d411\u0026ty\u003ds",
            "client_id": "jd1XCa5VLRyoq6I7TLYCgQ\u003d\u003d",
            "time_usec": 1517054269127654
},
        {
            "page_transition": "LINK",
            "title": "Participate at YHAI National Level Adventure Programs organized by National Office",
            "url": "http://www.yhaindia.org/national-level-program.php",
            "client_id": "jd1XCa5VLRyoq6I7TLYCgQ\u003d\u003d",
            "time_usec": 1517054236849752
},
        {
            "page_transition": "LINK",
            "title": "",
            "url": "http://www.yhaindia.org/adventure-programme.php?id\u003d411\u0026ty\u003ds",
            "client_id": "jd1XCa5VLRyoq6I7TLYCgQ\u003d\u003d",
            "time_usec": 1517054234376258
},
        {
            "page_transition": "LINK",
            "title": "Participate at YHAI National Level Adventure Programs organized by National Office",
            "url": "http://www.yhaindia.org/national-level-program.php",
            "client_id": "jd1XCa5VLRyoq6I7TLYCgQ\u003d\u003d",
            "time_usec": 1517054220454739
},
        {
            "page_transition": "LINK",
            "title": "",
            "url": "http://www.yhaindia.org/adventure-programme.php?id\u003d411\u0026ty\u003ds",
            "client_id": "jd1XCa5VLRyoq6I7TLYCgQ\u003d\u003d",
            "time_usec": 1517054190512337
},
        {
            "page_transition": "LINK",
            "title": "Participate at YHAI National Level Adventure Programs organized by National Office",
            "url": "http://www.yhaindia.org/national-level-program.php",
            "client_id": "jd1XCa5VLRyoq6I7TLYCgQ\u003d\u003d",
            "time_usec": 1517054172601781
},
        {
            "page_transition": "GENERATED",
            "title": "yhai - Google Search",
            "url": "https://www.google.co.in/search?q\u003dyhai\u0026oq\u003dyhai\u0026aqs\u003dchrome..69i57j0j5j0.1244j0j9\u0026client\u003dms-android-motorola-rev2\u0026sourceid\u003dchrome-mobile\u0026ie\u003dUTF-8",
            "client_id": "jd1XCa5VLRyoq6I7TLYCgQ\u003d\u003d",
            "time_usec": 1517054166399608
},
        {
            "page_transition": "LINK",
            "title": "Youth Hostels Association of India - Budget Youth Hostels Accommodation | YHAI",
            "url": "http://www.yhaindia.org/",
            "client_id": "jd1XCa5VLRyoq6I7TLYCgQ\u003d\u003d",
            "time_usec": 1517054148811946
},
        {
            "page_transition": "GENERATED",
            "title": "yhai - Google Search",
            "url": "https://www.google.co.in/search?q\u003dyhai\u0026oq\u003dyhai\u0026aqs\u003dchrome..69i57j0j5j0.1244j0j9\u0026client\u003dms-android-motorola-rev2\u0026sourceid\u003dchrome-mobile\u0026ie\u003dUTF-8",
            "client_id": "jd1XCa5VLRyoq6I7TLYCgQ\u003d\u003d",
            "time_usec": 1517054143266986
},
        {
            "page_transition": "RELOAD",
            "title": "intel share price - Google Search",
            "url": "https://www.google.co.in/search?q\u003dintel+share+price\u0026oq\u003dintel+sh\u0026aqs\u003dchrome.1.69i57j0l3.7353j0j9\u0026client\u003dms-android-motorola-rev2\u0026sourceid\u003dchrome-mobile\u0026ie\u003dUTF-8#mie\u003dl,/m/07zkq3x,Intel%20Corporation,INTC,NASDAQ,INTEL%20CORPORATION%20(UK)%20LIMITED,/m/07zkq3x,0",
            "client_id": "jd1XCa5VLRyoq6I7TLYCgQ\u003d\u003d",
            "time_usec": 1517054132510558
},
        {
            "page_transition": "LINK",
            "title": "intel share price - Google Search",
            "url": "https://www.google.co.in/search?q\u003dintel+share+price\u0026oq\u003dintel+sh\u0026aqs\u003dchrome.1.69i57j0l3.7353j0j9\u0026client\u003dms-android-motorola-rev2\u0026sourceid\u003dchrome-mobile\u0026ie\u003dUTF-8#mie\u003dl,/m/07zkq3x,Intel%20Corporation,INTC,NASDAQ,INTEL%20CORPORATION%20(UK)%20LIMITED,/m/07zkq3x,0",
            "client_id": "jd1XCa5VLRyoq6I7TLYCgQ\u003d\u003d",
            "time_usec": 1517026322854676
},
        {
            "page_transition": "LINK",
            "title": "intel share price - Google Search",
            "url": "https://www.google.co.in/search?q\u003dintel+share+price\u0026oq\u003dintel+sh\u0026aqs\u003dchrome.1.69i57j0l3.7353j0j9\u0026client\u003dms-android-motorola-rev2\u0026sourceid\u003dchrome-mobile\u0026ie\u003dUTF-8#mie\u003dl,/m/07zllzd,NVIDIA%20Corporation,NVDA,NASDAQ,NVIDIA%20Corp,/m/07zllzd,0",
            "client_id": "jd1XCa5VLRyoq6I7TLYCgQ\u003d\u003d",
            "time_usec": 1517026320668930
},
        {
            "page_transition": "LINK",
            "title": "intel share price - Google Search",
            "url": "https://www.google.co.in/search?q\u003dintel+share+price\u0026oq\u003dintel+sh\u0026aqs\u003dchrome.1.69i57j0l3.7353j0j9\u0026client\u003dms-android-motorola-rev2\u0026sourceid\u003dchrome-mobile\u0026ie\u003dUTF-8#mie\u003dl,/m/0ckxs6x,ASUSTEK%20Computer%20Inc.,2357,TPE,ASUSTEK%20Computer%20Inc.,/m/0ckxs6x,0",
            "client_id": "jd1XCa5VLRyoq6I7TLYCgQ\u003d\u003d",
            "time_usec": 1517026290186667
},
        {
            "page_transition": "LINK",
            "title": "intel share price - Google Search",
            "url": "https://www.google.co.in/search?q\u003dintel+share+price\u0026oq\u003dintel+sh\u0026aqs\u003dchrome.1.69i57j0l3.7353j0j9\u0026client\u003dms-android-motorola-rev2\u0026sourceid\u003dchrome-mobile\u0026ie\u003dUTF-8#mie\u003dl,/m/07zllzd,NVIDIA%20Corporation,NVDA,NASDAQ,NVIDIA%20Corp,/m/07zllzd,0",
            "client_id": "jd1XCa5VLRyoq6I7TLYCgQ\u003d\u003d",
            "time_usec": 1517026255061995
},
        {
            "page_transition": "LINK",
            "title": "intel share price - Google Search",
            "url": "https://www.google.co.in/search?q\u003dintel+share+price\u0026oq\u003dintel+sh\u0026aqs\u003dchrome.1.69i57j0l3.7353j0j9\u0026client\u003dms-android-motorola-rev2\u0026sourceid\u003dchrome-mobile\u0026ie\u003dUTF-8#mie\u003dl,/m/07zkq3x,Intel%20Corporation,INTC,NASDAQ,INTEL%20CORPORATION%20(UK)%20LIMITED,/m/07zkq3x,0",
            "client_id": "jd1XCa5VLRyoq6I7TLYCgQ\u003d\u003d",
            "time_usec": 1517026202145408
},
        {
            "page_transition": "RELOAD",
            "title": "intel share price - Google Search",
            "url": "https://www.google.co.in/search?q\u003dintel+share+price\u0026oq\u003dintel+sh\u0026aqs\u003dchrome.1.69i57j0l3.7353j0j9\u0026client\u003dms-android-motorola-rev2\u0026sourceid\u003dchrome-mobile\u0026ie\u003dUTF-8",
            "client_id": "jd1XCa5VLRyoq6I7TLYCgQ\u003d\u003d",
            "time_usec": 1517026191894787
},
        {
            "page_transition": "RELOAD",
            "title": "intel share price - Google Search",
            "url": "https://www.google.co.in/search?q\u003dintel+share+price\u0026oq\u003dintel+sh\u0026aqs\u003dchrome.1.69i57j0l3.7353j0j9\u0026client\u003dms-android-motorola-rev2\u0026sourceid\u003dchrome-mobile\u0026ie\u003dUTF-8",
            "client_id": "jd1XCa5VLRyoq6I7TLYCgQ\u003d\u003d",
            "time_usec": 1517026173834649
},
        {
            "page_transition": "GENERATED",
            "title": "intel share price - Google Search",
            "url": "https://www.google.co.in/search?q\u003dintel+share+price\u0026oq\u003dintel+sh\u0026aqs\u003dchrome.1.69i57j0l3.7353j0j9\u0026client\u003dms-android-motorola-rev2\u0026sourceid\u003dchrome-mobile\u0026ie\u003dUTF-8",
            "client_id": "jd1XCa5VLRyoq6I7TLYCgQ\u003d\u003d",
            "time_usec": 1517026158074263
},
        {
            "page_transition": "RELOAD",
            "title": "molly bloom - Google Search",
            "url": "https://www.google.co.in/search?q\u003dmolly+bloom\u0026oq\u003dmolly+\u0026aqs\u003dchrome.2.69i57j0l3.2789j0j7\u0026client\u003dms-android-motorola-rev2\u0026sourceid\u003dchrome-mobile\u0026ie\u003dUTF-8",
            "client_id": "jd1XCa5VLRyoq6I7TLYCgQ\u003d\u003d",
            "time_usec": 1517024206794927
},
        {
            "page_transition": "RELOAD",
            "title": "The True Story Behind \u0027Molly\u2019s Game\u0027 Is Wild - VICE",
            "url": "https://www.vice.com/en_us/article/j5v5gp/the-true-story-behind-mollys-game-is-wild",
            "client_id": "jd1XCa5VLRyoq6I7TLYCgQ\u003d\u003d",
            "time_usec": 1517024204518444
},
        {
            "page_transition": "RELOAD",
            "title": "Movie Tickets, Plays, Sports, Events \u0026 Cinemas near Bengaluru - BookMyShow",
            "url": "https://in.bookmyshow.com/bengaluru",
            "client_id": "jd1XCa5VLRyoq6I7TLYCgQ\u003d\u003d",
            "time_usec": 1517024201952086
},
        {
            "page_transition": "RELOAD",
            "title": "kedarkantha peak height - Google Search",
            "url": "https://www.google.co.in/search?q\u003dkedarkantha+peak+height\u0026oq\u003dkedarkantha+peak+h\u0026aqs\u003dchrome.1.69i57j0.9747j0j4\u0026client\u003dms-android-motorola-rev2\u0026sourceid\u003dchrome-mobile\u0026ie\u003dUTF-8",
            "client_id": "jd1XCa5VLRyoq6I7TLYCgQ\u003d\u003d",
            "time_usec": 1517024199506360
},
        {
            "page_transition": "GENERATED",
            "title": "kedarkantha peak height - Google Search",
            "url": "https://www.google.co.in/search?q\u003dkedarkantha+peak+height\u0026oq\u003dkedarkantha+peak+h\u0026aqs\u003dchrome.1.69i57j0.9747j0j4\u0026client\u003dms-android-motorola-rev2\u0026sourceid\u003dchrome-mobile\u0026ie\u003dUTF-8",
            "client_id": "jd1XCa5VLRyoq6I7TLYCgQ\u003d\u003d",
            "time_usec": 1516986736995688
},
        {
            "page_transition": "FORM_SUBMIT",
            "title": "chaainsheel uttarakhand - Google Search",
            "url": "https://www.google.co.in/search?client\u003dms-android-motorola-rev2\u0026ei\u003dXmFrWraQN4KV8wWVho6QCw\u0026q\u003dchaainsheel+uttarakhand\u0026oq\u003dchainsheel\u0026gs_l\u003dmobile-gws-serp.1.1.0j0i10k1.6122.9302.0.10677.13.13.0.4.4.0.288.2091.0j5j5.10.0....0...1c.1j4.64.mobile-gws-serp..3.10.1345.3..35i39k1j0i67k1j0i10i30k1j0i30k1.1764.l0sH2fJ-bQE",
            "client_id": "jd1XCa5VLRyoq6I7TLYCgQ\u003d\u003d",
            "time_usec": 1516986731441810
},
        {
            "page_transition": "GENERATED",
            "title": "kedarkantha peak height - Google Search",
            "url": "https://www.google.co.in/search?q\u003dkedarkantha+peak+height\u0026oq\u003dkedarkantha+peak+h\u0026aqs\u003dchrome.1.69i57j0.9747j0j4\u0026client\u003dms-android-motorola-rev2\u0026sourceid\u003dchrome-mobile\u0026ie\u003dUTF-8",
            "client_id": "jd1XCa5VLRyoq6I7TLYCgQ\u003d\u003d",
            "time_usec": 1516986718631670
},
        {
            "page_transition": "RELOAD",
            "title": "Movie Tickets, Plays, Sports, Events \u0026 Cinemas near Bengaluru - BookMyShow",
            "url": "https://in.bookmyshow.com/bengaluru",
            "client_id": "jd1XCa5VLRyoq6I7TLYCgQ\u003d\u003d",
            "time_usec": 1516986707461189
},
        {
            "page_transition": "RELOAD",
            "title": "Movie Tickets, Plays, Sports, Events \u0026 Cinemas near Bengaluru - BookMyShow",
            "url": "https://in.bookmyshow.com/bengaluru",
            "client_id": "jd1XCa5VLRyoq6I7TLYCgQ\u003d\u003d",
            "time_usec": 1516976773023840
},
        {
            "page_transition": "LINK",
            "title": "Data Scientist/Data Engineer Jobs in Pune | Glassdoor.co.in",
            "url": "https://www.glassdoor.co.in/Job/pune-data-scientist-data-engineer-jobs-SRCH_IL.0,4_IC2856202_KO5,33.htm?fromAge\u003d7\u0026jl\u003d2599674473\u0026ja\u003d53584800\u0026jaguid\u003d000001612e6be51ab062aa3ef89ef1e8\u0026pos\u003d101\u0026srs\u003dEMAIL_JOB_ALERT\u0026utm_source\u003djobalert\u0026utm_medium\u003demail\u0026utm_campaign\u003djobAlertAlert\u0026utm_content\u003dja-jobtitle",
            "client_id": "jd1XCa5VLRyoq6I7TLYCgQ\u003d\u003d",
            "time_usec": 1516906622882398
},
        {
            "page_transition": "LINK",
            "title": "Aera Technology Data Scientist Job in Pune, India | Glassdoor.co.in",
